{
"type": "FeatureCollection",
"crs": { "type": "name", "properties": { "name": "urn:ogc:def:crs:OGC:1.3:CRS84" } },
"features": [
{ "type": "Feature", "properties": { "name": "1. Madison Park", "lat": 47.6341227, "long": -122.2807885 }, "geometry": { "type": "Point", "coordinates": [ -122.2807885, 47.6341227 ] } },
{ "type": "Feature", "properties": { "name": "2. Ballard Drive-Thru", "lat": 47.6668892, "long": -122.3766051 }, "geometry": { "type": "Point", "coordinates": [ -122.37660510000001, 47.6668892 ] } },
{ "type": "Feature", "properties": { "name": "3. Seventh and Pike", "lat": 47.60621, "long": -122.33207 }, "geometry": { "type": "Point", "coordinates": [ -122.33207, 47.60621 ] } },
{ "type": "Feature", "properties": { "name": "4. 23rd and Jackson", "lat": 47.59949545, "long": -122.301972385268 }, "geometry": { "type": "Point", "coordinates": [ -122.301972385268, 47.59949545 ] } },
{ "type": "Feature", "properties": { "name": "5. Columbia Tower 40th Floor", "lat": 47.60621, "long": -122.33207 }, "geometry": { "type": "Point", "coordinates": [ -122.33207, 47.60621 ] } },
{ "type": "Feature", "properties": { "name": "6. Century Square", "lat": 47.60621, "long": -122.33207 }, "geometry": { "type": "Point", "coordinates": [ -122.33207, 47.60621 ] } },
{ "type": "Feature", "properties": { "name": "7. Roy Street Coffee and Tea", "lat": 47.6253026, "long": -122.321085 }, "geometry": { "type": "Point", "coordinates": [ -122.321085, 47.6253026 ] } },
{ "type": "Feature", "properties": { "name": "8. Olive Way", "lat": 47.6194572, "long": -122.325070491391 }, "geometry": { "type": "Point", "coordinates": [ -122.325070491391, 47.6194572 ] } },
{ "type": "Feature", "properties": { "name": "9. Russell Investments Center", "lat": 47.60621, "long": -122.33207 }, "geometry": { "type": "Point", "coordinates": [ -122.33207, 47.60621 ] } },
{ "type": "Feature", "properties": { "name": "10. Broadway and East Pike", "lat": 47.6141035, "long": -122.3164747 }, "geometry": { "type": "Point", "coordinates": [ -122.3164747, 47.6141035 ] } },
{ "type": "Feature", "properties": { "name": "11. Every Other Airport Starbucks", "lat": 47.60621, "long": -122.33207 }, "geometry": { "type": "Point", "coordinates": [ -122.33207, 47.60621 ] } },
{ "type": "Feature", "properties": { "name": "12. University Village North", "lat": 47.6644178, "long": -122.2988381 }, "geometry": { "type": "Point", "coordinates": [ -122.2988381, 47.6644178 ] } },
{ "type": "Feature", "properties": { "name": "13. Northgate Way", "lat": 47.60621, "long": -122.33207 }, "geometry": { "type": "Point", "coordinates": [ -122.33207, 47.60621 ] } },
{ "type": "Feature", "properties": { "name": "14. Seattle Childrens Hospital and Kiosk", "lat": 47.663215, "long": -122.2843412 }, "geometry": { "type": "Point", "coordinates": [ -122.2843412, 47.663215 ] } },
{ "type": "Feature", "properties": { "name": "15. Fourth and Seneca", "lat": 47.60621, "long": -122.33207 }, "geometry": { "type": "Point", "coordinates": [ -122.33207, 47.60621 ] } },
{ "type": "Feature", "properties": { "name": "16. Terry and Republican", "lat": 47.60621, "long": -122.33207 }, "geometry": { "type": "Point", "coordinates": [ -122.33207, 47.60621 ] } },
{ "type": "Feature", "properties": { "name": "17. City University", "lat": 47.6177084, "long": -122.3444623 }, "geometry": { "type": "Point", "coordinates": [ -122.3444623, 47.6177084 ] } },
{ "type": "Feature", "properties": { "name": "18. 1200 Westlake Avenue", "lat": 47.6299052653061, "long": -122.342425387755 }, "geometry": { "type": "Point", "coordinates": [ -122.342425387755, 47.6299052653061 ] } },
{ "type": "Feature", "properties": { "name": "19. Eighth and Virginia", "lat": 47.60621, "long": -122.33207 }, "geometry": { "type": "Point", "coordinates": [ -122.33207, 47.60621 ] } },
{ "type": "Feature", "properties": { "name": "20. SoDo Lobby", "lat": 47.60621, "long": -122.33207 }, "geometry": { "type": "Point", "coordinates": [ -122.33207, 47.60621 ] } },
{ "type": "Feature", "properties": { "name": "21. 15th Ave E", "lat": 47.621446, "long": -122.3124397 }, "geometry": { "type": "Point", "coordinates": [ -122.3124397, 47.621446 ] } },
{ "type": "Feature", "properties": { "name": "22. Leschi", "lat": 47.6020673, "long": -122.2853581 }, "geometry": { "type": "Point", "coordinates": [ -122.2853581, 47.6020673 ] } },
{ "type": "Feature", "properties": { "name": "23. Fourth and Union", "lat": 47.60621, "long": -122.33207 }, "geometry": { "type": "Point", "coordinates": [ -122.33207, 47.60621 ] } },
{ "type": "Feature", "properties": { "name": "24. University Village South", "lat": 47.6616704, "long": -122.2993852 }, "geometry": { "type": "Point", "coordinates": [ -122.2993852, 47.6616704 ] } },
{ "type": "Feature", "properties": { "name": "25. Magnolia", "lat": 47.6397116, "long": -122.3999461 }, "geometry": { "type": "Point", "coordinates": [ -122.3999461, 47.6397116 ] } },
{ "type": "Feature", "properties": { "name": "26. Swedish Medical Center", "lat": 47.6091718, "long": -122.3242161 }, "geometry": { "type": "Point", "coordinates": [ -122.3242161, 47.6091718 ] } },
{ "type": "Feature", "properties": { "name": "27. Second and Cherry", "lat": 47.60621, "long": -122.33207 }, "geometry": { "type": "Point", "coordinates": [ -122.33207, 47.60621 ] } },
{ "type": "Feature", "properties": { "name": "28. Fourth and Diagonal", "lat": 47.60621, "long": -122.33207 }, "geometry": { "type": "Point", "coordinates": [ -122.33207, 47.60621 ] } },
{ "type": "Feature", "properties": { "name": "29. Columbia Center", "lat": 47.60621, "long": -122.33207 }, "geometry": { "type": "Point", "coordinates": [ -122.33207, 47.60621 ] } },
{ "type": "Feature", "properties": { "name": "30. Swedish First Hill Lobby", "lat": 47.6086804, "long": -122.322661968327 }, "geometry": { "type": "Point", "coordinates": [ -122.322661968327, 47.6086804 ] } },
{ "type": "Feature", "properties": { "name": "31. University Way", "lat": 47.6628602, "long": -122.3132486 }, "geometry": { "type": "Point", "coordinates": [ -122.3132486, 47.6628602 ] } },
{ "type": "Feature", "properties": { "name": "32. 1211 Dexter Ave", "lat": 47.6299052653061, "long": -122.342425387755 }, "geometry": { "type": "Point", "coordinates": [ -122.342425387755, 47.6299052653061 ] } },
{ "type": "Feature", "properties": { "name": "33. MLK Way and Graham", "lat": 47.60621, "long": -122.33207 }, "geometry": { "type": "Point", "coordinates": [ -122.33207, 47.60621 ] } },
{ "type": "Feature", "properties": { "name": "34. Greenlake", "lat": 47.60621, "long": -122.33207 }, "geometry": { "type": "Point", "coordinates": [ -122.33207, 47.60621 ] } },
{ "type": "Feature", "properties": { "name": "35. Second and Seneca", "lat": 47.60621, "long": -122.33207 }, "geometry": { "type": "Point", "coordinates": [ -122.33207, 47.60621 ] } },
{ "type": "Feature", "properties": { "name": "36. Queen Anne", "lat": 47.6381796, "long": -122.3571166 }, "geometry": { "type": "Point", "coordinates": [ -122.3571166, 47.6381796 ] } },
{ "type": "Feature", "properties": { "name": "37. Pacific Place", "lat": 47.60621, "long": -122.33207 }, "geometry": { "type": "Point", "coordinates": [ -122.33207, 47.60621 ] } },
{ "type": "Feature", "properties": { "name": "38. 12th and Columbia", "lat": 47.60621, "long": -122.33207 }, "geometry": { "type": "Point", "coordinates": [ -122.33207, 47.60621 ] } },
{ "type": "Feature", "properties": { "name": "39. Lake City Way and 120th", "lat": 47.7157143, "long": -122.2978862 }, "geometry": { "type": "Point", "coordinates": [ -122.2978862, 47.7157143 ] } },
{ "type": "Feature", "properties": { "name": "40. Westlake and Thomas", "lat": 47.60621, "long": -122.33207 }, "geometry": { "type": "Point", "coordinates": [ -122.33207, 47.60621 ] } },
{ "type": "Feature", "properties": { "name": "41. Wedgwood", "lat": 47.6814027, "long": -122.2906476 }, "geometry": { "type": "Point", "coordinates": [ -122.2906476, 47.6814027 ] } },
{ "type": "Feature", "properties": { "name": "42. First and Marion", "lat": 47.60621, "long": -122.33207 }, "geometry": { "type": "Point", "coordinates": [ -122.33207, 47.60621 ] } },
{ "type": "Feature", "properties": { "name": "43. Phinney Ridge", "lat": 47.6779082, "long": -122.3559108 }, "geometry": { "type": "Point", "coordinates": [ -122.3559108, 47.6779082 ] } },
{ "type": "Feature", "properties": { "name": "44. Belltown", "lat": 47.60621, "long": -122.33207 }, "geometry": { "type": "Point", "coordinates": [ -122.33207, 47.60621 ] } },
{ "type": "Feature", "properties": { "name": "45. University Village", "lat": 47.662684, "long": -122.2997451 }, "geometry": { "type": "Point", "coordinates": [ -122.2997451, 47.662684 ] } },
{ "type": "Feature", "properties": { "name": "46. Two Union Square", "lat": 47.60621, "long": -122.33207 }, "geometry": { "type": "Point", "coordinates": [ -122.33207, 47.60621 ] } },
{ "type": "Feature", "properties": { "name": "47. Columbia City", "lat": 47.60621, "long": -122.33207 }, "geometry": { "type": "Point", "coordinates": [ -122.33207, 47.60621 ] } },
{ "type": "Feature", "properties": { "name": "48. Main Terminal Starbucks", "lat": 47.60621, "long": -122.33207 }, "geometry": { "type": "Point", "coordinates": [ -122.33207, 47.60621 ] } },
{ "type": "Feature", "properties": { "name": "49. Market Street Ballard", "lat": 47.6688438, "long": -122.3849093 }, "geometry": { "type": "Point", "coordinates": [ -122.3849093, 47.6688438 ] } },
{ "type": "Feature", "properties": { "name": "50. Third and Madison", "lat": 47.60621, "long": -122.33207 }, "geometry": { "type": "Point", "coordinates": [ -122.33207, 47.60621 ] } },
{ "type": "Feature", "properties": { "name": "51. Alki Ave", "lat": 47.5787514, "long": -122.4112086 }, "geometry": { "type": "Point", "coordinates": [ -122.4112086, 47.5787514 ] } },
{ "type": "Feature", "properties": { "name": "52. Pioneer Square", "lat": 47.60621, "long": -122.33207 }, "geometry": { "type": "Point", "coordinates": [ -122.33207, 47.60621 ] } },
{ "type": "Feature", "properties": { "name": "53. Pine Street", "lat": 47.60621, "long": -122.33207 }, "geometry": { "type": "Point", "coordinates": [ -122.33207, 47.60621 ] } },
{ "type": "Feature", "properties": { "name": "54. James Tower", "lat": 47.60711325, "long": -122.310885616257 }, "geometry": { "type": "Point", "coordinates": [ -122.310885616257, 47.60711325 ] } },
{ "type": "Feature", "properties": { "name": "55. Third and Seneca", "lat": 47.60621, "long": -122.33207 }, "geometry": { "type": "Point", "coordinates": [ -122.33207, 47.60621 ] } },
{ "type": "Feature", "properties": { "name": "56. MLK Way", "lat": 47.60621, "long": -122.33207 }, "geometry": { "type": "Point", "coordinates": [ -122.33207, 47.60621 ] } },
{ "type": "Feature", "properties": { "name": "57. Washington Shoe Building", "lat": 47.60621, "long": -122.33207 }, "geometry": { "type": "Point", "coordinates": [ -122.33207, 47.60621 ] } },
{ "type": "Feature", "properties": { "name": "58. Oak Tree", "lat": 47.7100682, "long": -122.3447687 }, "geometry": { "type": "Point", "coordinates": [ -122.3447687, 47.7100682 ] } },
{ "type": "Feature", "properties": { "name": "59. Plaza 600 Building", "lat": 47.60621, "long": -122.33207 }, "geometry": { "type": "Point", "coordinates": [ -122.33207, 47.60621 ] } },
{ "type": "Feature", "properties": { "name": "60. Swedish Medical Center", "lat": 47.6065478, "long": -122.31100086075701 }, "geometry": { "type": "Point", "coordinates": [ -122.31100086075701, 47.6065478 ] } },
{ "type": "Feature", "properties": { "name": "61. Wallingford", "lat": 47.6615004, "long": -122.3330857 }, "geometry": { "type": "Point", "coordinates": [ -122.3330857, 47.6615004 ] } },
{ "type": "Feature", "properties": { "name": "62. Starbucks Reserve Roastery and Tasting Room", "lat": 47.60621, "long": -122.33207 }, "geometry": { "type": "Point", "coordinates": [ -122.33207, 47.60621 ] } },
{ "type": "Feature", "properties": { "name": "63. 130th and Aurora", "lat": 47.7243097, "long": -122.3454816 }, "geometry": { "type": "Point", "coordinates": [ -122.3454816, 47.7243097 ] } },
{ "type": "Feature", "properties": { "name": "64. Second and Lenora", "lat": 47.612543, "long": -122.3427799 }, "geometry": { "type": "Point", "coordinates": [ -122.3427799, 47.612543 ] } },
{ "type": "Feature", "properties": { "name": "65. 505 Union Station", "lat": 47.60621, "long": -122.33207 }, "geometry": { "type": "Point", "coordinates": [ -122.33207, 47.60621 ] } },
{ "type": "Feature", "properties": { "name": "66. Interbay", "lat": 47.6483005, "long": -122.378040597956 }, "geometry": { "type": "Point", "coordinates": [ -122.378040597956, 47.6483005 ] } },
{ "type": "Feature", "properties": { "name": "67. Capitol Hill", "lat": 47.6230173, "long": -122.3207285 }, "geometry": { "type": "Point", "coordinates": [ -122.3207285, 47.6230173 ] } },
{ "type": "Feature", "properties": { "name": "68. First and Walker", "lat": 47.60621, "long": -122.33207 }, "geometry": { "type": "Point", "coordinates": [ -122.33207, 47.60621 ] } },
{ "type": "Feature", "properties": { "name": "69. Admiral Way", "lat": 47.58102055, "long": -122.384070118862 }, "geometry": { "type": "Point", "coordinates": [ -122.384070118862, 47.58102055 ] } },
{ "type": "Feature", "properties": { "name": "70. Corson and Michigan", "lat": 47.547918, "long": -122.3218341 }, "geometry": { "type": "Point", "coordinates": [ -122.3218341, 47.547918 ] } },
{ "type": "Feature", "properties": { "name": "71. Northwest Hospital and Medical Center", "lat": 47.71387735, "long": -122.337144302499 }, "geometry": { "type": "Point", "coordinates": [ -122.337144302499, 47.71387735 ] } },
{ "type": "Feature", "properties": { "name": "72. Fourth and Blanchard", "lat": 47.60621, "long": -122.33207 }, "geometry": { "type": "Point", "coordinates": [ -122.33207, 47.60621 ] } },
{ "type": "Feature", "properties": { "name": "73. 83rd and Aurora", "lat": 47.6893365, "long": -122.3449153 }, "geometry": { "type": "Point", "coordinates": [ -122.3449153, 47.6893365 ] } },
{ "type": "Feature", "properties": { "name": "74. Seattle Municipal Building", "lat": 47.60621, "long": -122.33207 }, "geometry": { "type": "Point", "coordinates": [ -122.33207, 47.60621 ] } },
{ "type": "Feature", "properties": { "name": "75. Northgate", "lat": 47.7088158, "long": -122.3215103 }, "geometry": { "type": "Point", "coordinates": [ -122.3215103, 47.7088158 ] } },
{ "type": "Feature", "properties": { "name": "76. University Way", "lat": 47.6581891, "long": -122.3134068 }, "geometry": { "type": "Point", "coordinates": [ -122.3134068, 47.6581891 ] } },
{ "type": "Feature", "properties": { "name": "77. Elliott Avenue Drive Thru", "lat": 47.6298518, "long": -122.372048178786 }, "geometry": { "type": "Point", "coordinates": [ -122.372048178786, 47.6298518 ] } },
{ "type": "Feature", "properties": { "name": "78. Second and Madison", "lat": 47.60621, "long": -122.33207 }, "geometry": { "type": "Point", "coordinates": [ -122.33207, 47.60621 ] } },
{ "type": "Feature", "properties": { "name": "79. Roosevelt Square", "lat": 47.60621, "long": -122.33207 }, "geometry": { "type": "Point", "coordinates": [ -122.33207, 47.60621 ] } },
{ "type": "Feature", "properties": { "name": "80. Madison and Boren", "lat": 47.6102287, "long": -122.3221687 }, "geometry": { "type": "Point", "coordinates": [ -122.32216870000001, 47.6102287 ] } },
{ "type": "Feature", "properties": { "name": "81. Fifth and Columbia", "lat": 47.60621, "long": -122.33207 }, "geometry": { "type": "Point", "coordinates": [ -122.33207, 47.60621 ] } },
{ "type": "Feature", "properties": { "name": "82. 35th and Fauntleroy", "lat": 47.56427465, "long": -122.37703221339601 }, "geometry": { "type": "Point", "coordinates": [ -122.37703221339601, 47.56427465 ] } },
{ "type": "Feature", "properties": { "name": "83. Westlake and Denny", "lat": 47.60621, "long": -122.33207 }, "geometry": { "type": "Point", "coordinates": [ -122.33207, 47.60621 ] } },
{ "type": "Feature", "properties": { "name": "84. Sixth and Union", "lat": 47.60621, "long": -122.33207 }, "geometry": { "type": "Point", "coordinates": [ -122.33207, 47.60621 ] } },
{ "type": "Feature", "properties": { "name": "85. Eastlake", "lat": 47.60621, "long": -122.33207 }, "geometry": { "type": "Point", "coordinates": [ -122.33207, 47.60621 ] } },
{ "type": "Feature", "properties": { "name": "86. Fremont", "lat": 47.6498374, "long": -122.3500159 }, "geometry": { "type": "Point", "coordinates": [ -122.3500159, 47.6498374 ] } },
{ "type": "Feature", "properties": { "name": "87. 1700 Seventh Ave", "lat": 47.60621, "long": -122.33207 }, "geometry": { "type": "Point", "coordinates": [ -122.33207, 47.60621 ] } },
{ "type": "Feature", "properties": { "name": "88. Pre-Security Airport Starbucks", "lat": 47.60621, "long": -122.33207 }, "geometry": { "type": "Point", "coordinates": [ -122.33207, 47.60621 ] } },
{ "type": "Feature", "properties": { "name": "89. 145th and Lake City Way", "lat": 47.7329604, "long": -122.2919248 }, "geometry": { "type": "Point", "coordinates": [ -122.2919248, 47.7329604 ] } },
{ "type": "Feature", "properties": { "name": "90. US Bank Centre", "lat": 47.60621, "long": -122.33207 }, "geometry": { "type": "Point", "coordinates": [ -122.33207, 47.60621 ] } },
{ "type": "Feature", "properties": { "name": "91. 145th and 15th", "lat": 47.733727, "long": -122.313139 }, "geometry": { "type": "Point", "coordinates": [ -122.313139, 47.733727 ] } },
{ "type": "Feature", "properties": { "name": "92. Holman Road", "lat": 47.7019318, "long": -122.36366470019099 }, "geometry": { "type": "Point", "coordinates": [ -122.36366470019099, 47.7019318 ] } },
{ "type": "Feature", "properties": { "name": "93. Metropolitan Park", "lat": 47.60621, "long": -122.33207 }, "geometry": { "type": "Point", "coordinates": [ -122.33207, 47.60621 ] } },
{ "type": "Feature", "properties": { "name": "94. California and Fauntleroy", "lat": 47.5446922, "long": -122.3874438 }, "geometry": { "type": "Point", "coordinates": [ -122.3874438, 47.5446922 ] } },
{ "type": "Feature", "properties": { "name": "95. Seattle Center", "lat": 47.60621, "long": -122.33207 }, "geometry": { "type": "Point", "coordinates": [ -122.33207, 47.60621 ] } },
{ "type": "Feature", "properties": { "name": "96. Pier 55", "lat": 47.60621, "long": -122.33207 }, "geometry": { "type": "Point", "coordinates": [ -122.33207, 47.60621 ] } },
{ "type": "Feature", "properties": { "name": "97. Northgate Mall", "lat": 47.7071473, "long": -122.326769 }, "geometry": { "type": "Point", "coordinates": [ -122.326769, 47.7071473 ] } },
{ "type": "Feature", "properties": { "name": "98. First and Pike", "lat": 47.60621, "long": -122.33207 }, "geometry": { "type": "Point", "coordinates": [ -122.33207, 47.60621 ] } },
{ "type": "Feature", "properties": { "name": "99. Westwood Village", "lat": 47.60621, "long": -122.33207 }, "geometry": { "type": "Point", "coordinates": [ -122.33207, 47.60621 ] } },
{ "type": "Feature", "properties": { "name": "100. Westlake Center", "lat": 47.60621, "long": -122.33207 }, "geometry": { "type": "Point", "coordinates": [ -122.33207, 47.60621 ] } },
{ "type": "Feature", "properties": { "name": "101. SoDo8", "lat": 47.60621, "long": -122.33207 }, "geometry": { "type": "Point", "coordinates": [ -122.33207, 47.60621 ] } },
{ "type": "Feature", "properties": { "name": "102. Third and Pike", "lat": 47.60621, "long": -122.33207 }, "geometry": { "type": "Point", "coordinates": [ -122.33207, 47.60621 ] } },
{ "type": "Feature", "properties": { "name": "103. Lower Queen Anne", "lat": 47.62303605, "long": -122.356940948889 }, "geometry": { "type": "Point", "coordinates": [ -122.356940948889, 47.62303605 ] } },
{ "type": "Feature", "properties": { "name": "104. Pike Place", "lat": 47.60621, "long": -122.33207 }, "geometry": { "type": "Point", "coordinates": [ -122.33207, 47.60621 ] } }
]
}
